Library ,Operator,Address Line 1,Address Line 2,Address Line 3,Postcode,VPostcode,Latitude,Longitude,Ward,ONS Ref,Telephone,Email,Monday opening hours,Tuesday opening hours,Wednesday opening hours,Thursday opening hours,Friday  opening hours,Saturday opening hours,Sunday opening hours,Assistive Technology,"Adult books for loan, fiction and non-fiction",Baby changing facility,Boardmaker,Book tokens for sale,Cafe,Car parking,"Children's books for loan, fiction and non-fiction","Children's holiday activities, check locally",Community Information,CDs - Music,Computers,Council Papers - online,Councillor surgery,Credit card payments,Disabled access,Drinks machine,Electoral Registers- local,Electronic magnifier,Employment & training advice,"Events, check locally",Exhibition space,Fax,Free Internet Access,Homework Collection,Learning Sessions eg learn how to use a computer,LeedsCard Registration,Local & Family History,Local bus timetables,Local publications for sale,Meeting room for hire,Microsoft Office Facilities,MP surgery,Newspapers,Photocopier -B & W,Planning Applications (online),Printing,Readers’ Group,Request Service,Scanner,Self-service facility,Story tapes for children,Story time,Study space,Sunday opening,Talking books,Theatre bookings,Toilet,Tourist Information,Free WIFI,Writers’ Group
Ardsley and Tingley,Leeds City Council,213a Bradford Road,Tingley ,Wakefield,WF3 2DL,WF032DL,53.7243482210116,-1.55010823295179,Ardsley and Robin Hood,http://statistics.data.gov.uk/id/statistical-geography/E05001413,0113 253 9025,enquiry.express@leeds.gov.uk,"10:00 -13:00, 14:00 - 17:00",Closed,"10:00 - 13:00, 14:00 - 18:00",Closed,10:00 - 13:00,10:00 - 13:00,Closed,1,1,,,,,1,1,1,1,,1,1,,,1,,,,,1,,1,1,1,1,,1,1,,,1,,,1,1,1,1,1,1,1,1,1,,,1,,1,,1,
Armley,Leeds City Council,2 Stocks Hill,Armley,Leeds,LS12 1UQ,LS121UQ,53.7971267940085,-1.58821021299470,Armley,http://statistics.data.gov.uk/id/statistical-geography/E05001414,0113 378 5670,enquiry.express@leeds.gov.uk,10:00 - 19:00,08:30 - 19:00,08:30 - 19:00,08:30 - 19:00,08:30 - 19:00,10:00 - 16:00,Closed,1,1,,1,1,,,1,1,1,,1,1,1,,1,,,,,1,,1,1,1,1,1,,,,,1,1,1,1,1,1,1,1,,,1,1,,,1,1,1,,1,
Beeston,Leeds City Council,"Units 5-6, District Centre",Town Street,Leeds,LS11 8PN,LS118PN,53.7722933359186,-1.57041289032803,Beeston and Holbeck,http://statistics.data.gov.uk/id/statistical-geography/E05001415,0113 378 1849,enquiry.express@leeds.gov.uk,10:00 - 17:00,10:00 - 17:00,10:00 - 17:00,10:00 - 17:00,10:00 - 18:00,11:00 - 14:00,11:00 - 14:00,1,1,,1,1,,1,1,1,1,,1,1,1,,1,,,,,1,,1,1,1,1,1,,1,,1,1,1,1,1,1,1,1,1,1,1,1,1,,1,1,1,1,,1,
Boston Spa,Leeds City Council,High Street,Wetherby,Leeds,LS23 6BH,LS236BH,53.9068579261315,-1.35136769301128,Wetherby,http://statistics.data.gov.uk/id/statistical-geography/E05001443,0193 784 5239,enquiry.express@leeds.gov.uk,09:00 - 12:00,Closed,10:00 - 17:00,Closed,09:00 - 12:00,09:00 - 12:00,Closed,1,1,,,1,,,1,1,1,,1,1,,,1,,,,,1,,1,1,1,1,,,,,,1,,,,1,1,,1,,,1,,,,1,,,,1,
Bramley,Leeds City Council,Hough Lane,Bramley,Leeds,LS13 3ND,LS133ND,53.8104395832884,-1.63008536419819,Bramley and Stanningley,http://statistics.data.gov.uk/id/statistical-geography/E05001416,0113 378 1851,enquiry.express@leeds.gov.uk,09:00 - 17:00,09:00 - 18:00,09:00 - 17:00,10:00 - 17:00,09:00 - 17:00,10:00 - 15:00,11:00 - 14:00,1,1,,1,1,,,1,1,1,,1,1,1,,1,,,,,1,,1,1,1,1,1,,,,,1,1,1,1,1,1,1,1,,,1,1,,,1,1,1,,1,
Calverley,Leeds City Council,Thornhill Street,Calverley,Leeds,LS28 5PD,LS285PD,53.8290721389400,-1.68715373484607,Calverley and Farsley,http://statistics.data.gov.uk/id/statistical-geography/E05001418,0113 378 3124,enquiry.express@leeds.gov.uk,14:00 - 17:00,09:00 - 13:00,Closed,14:00 - 18:00,09:00 - 13:00,10:00 - 13:00,10:00 - 13:00,1,1,,,1,,,1,1,1,,1,1,1,,1,,,,,1,,1,1,1,1,1,1,1,,,1,,,1,1,1,1,1,1,1,1,1,,,1,1,1,,1,1
Central,Leeds City Council,The Headrow,Calverley Street,Leeds,LS1 3AB,LS013AB,53.8001305473566,-1.54870583595109,City and Hunslet,http://statistics.data.gov.uk/id/statistical-geography/E05001420,0113 378 5005,enquiry.express@leeds.gov.uk,09:00 - 19:00,09:00 - 19:00,09:00 - 19:00,09:00 - 18:00,09:00 - 17:00,10:00 - 17:00,11:00 - 15:00,1,1,,1,1,,,1,1,1,1,1,1,,1,1,,1,,,1,,1,1,1,1,1,,,,1,1,,1,1,1,1,1,1,,,1,1,,,1,1,,,1,
Chapel Allerton,Leeds City Council,106 Harrogate Road,Chapel Allerton,Leeds,LS7 4LZ,LS074LZ,53.8283271043572,-1.53720584841989,Chapel Allerton,http://statistics.data.gov.uk/id/statistical-geography/E05001419,0113 378 1859,enquiry.express@leeds.gov.uk,10:00 - 17:00,10:00 - 17:00,10:00 - 19:00,10:00 - 17:00,10:00 - 17:00,11:00 - 16:00,Closed,1,1,,1,1,,,1,1,1,,1,1,1,,1,,,1,,1,,1,1,1,1,1,,1,,,1,,1,1,1,1,1,1,1,1,1,1,,,1,,,,1,
Chapeltown,Leeds City Council,The Reginald Centre,263 Chapeltown Road,Leeds,LS7 3EX,LS073EX,53.8176729505365,-1.53170322854623,Chapel Allerton,http://statistics.data.gov.uk/id/statistical-geography/E05001419,0113 336 7683,enquiry.express@leeds.gov.uk,09:00 - 17:00,09:00 - 19:00,10:00 - 17:00,09:00 - 17:00,09:00 - 17:00,11:00 - 13:00,Closed,1,1,1,1,1,,1,1,1,1,,1,1,1,,1,1,,,1,1,,1,1,1,1,1,,1,,,1,1,1,1,1,1,1,1,1,1,1,1,,,1,,1,,1,1
Compton Road,Leeds City Council,The Compton Centre,Harehills Lane,Leeds,LS9 7BG,LS097BG,53.8095334130511,-1.51009295236509,Gipton and Harehills,http://statistics.data.gov.uk/id/statistical-geography/E05001424,0113 336 7790,enquiry.express@leeds.gov.uk,09:00 - 19:00,09:00 - 19:00,09:00 - 19:00,09:00 - 19:00,09:00 - 19:00,10:00 - 16:00,12:00 - 16:00,1,1,1,1,1,,1,1,1,1,,1,1,1,1,1,1,,,1,1,,1,1,1,1,1,,1,,,1,,1,1,1,1,1,1,1,1,1,1,,1,1,1,1,,1,
Crossgates,Leeds City Council,Farm Road,Cross Gates,Leeds,LS15 7LB,LS157LB,53.8068654350334,-1.45419705730300,Killingbeck and Seacroft,http://statistics.data.gov.uk/id/statistical-geography/E05001430,0113 378 5729,enquiry.express@leeds.gov.uk,10:00 - 17:00,10:00 - 17:00,09:00 - 19:00,09:00 - 19:00,10:00 - 17:00,10:00 - 15:00,Closed,1,1,1,1,1,,,1,1,1,,1,1,1,,1,,,,,1,,1,1,1,1,1,1,1,1,,1,1,1,1,1,1,1,1,1,1,1,1,1,,1,1,1,,1,
Dewsbury Road,Leeds City Council,190 Dewsbury Road,Hunslet,Leeds,LS11 6PF,LS116PF,53.7789070034059,-1.54559492658905,City and Hunslet,http://statistics.data.gov.uk/id/statistical-geography/E05001420,0113 378 5747,enquiry.express@leeds.gov.uk,09:00 - 18:00,09:00 - 17:00,10:00 - 17:00,09:00 - 17:00,09:00 - 17:00,10:00 - 13:00,Closed,1,1,,1,,,,1,1,1,,1,1,,,1,,,,,1,,1,1,1,1,1,,,,,1,,1,,1,1,,1,,,1,1,,,1,,,,1,
Farsley,Leeds City Council,Old Road,Farsley,Leeds,LS28 5DH,LS285DH,53.8106610380103,-1.67227134682685,Calverley and Farsley,http://statistics.data.gov.uk/id/statistical-geography/E05001418,0113 378 1861,enquiry.express@leeds.gov.uk,10:00 - 18:00,Closed,10:00 - 18:00,Closed,10:00 - 17:00,10:00 - 13:00,Closed,1,1,1,,1,,1,1,1,1,,1,1,1,,1,,,,,1,,1,1,1,1,1,1,1,,1,1,1,1,1,1,1,,1,1,1,1,1,1,,1,,1,,1,
Garforth,Leeds City Council,Lidgett Lane,Garforth ,Leeds,LS25 1EH,LS251EH,53.7912140173979,-1.38832351554754,Garforth and Swillington,http://statistics.data.gov.uk/id/statistical-geography/E05001423,0113 336 8950,enquiry.express@leeds.gov.uk,09:00 - 19:00,09:00 - 17:00,09:00 - 19:00,09:00 - 18:00,09:00 - 17:00,09:00 - 16:00,Closed,1,1,1,1,1,1,1,1,1,1,,1,1,1,1,1,,1,,,1,,1,1,1,1,1,1,1,,1,1,1,1,1,1,1,1,1,1,1,1,1,1,1,1,1,1,,1,
Gildersome,Leeds City Council,Town Street,Gildersome,Leeds,LS27 7AB,LS277AB,53.7583257665645,-1.62969374763376,Morley North,http://statistics.data.gov.uk/id/statistical-geography/E05001435,0113 37 83125,enquiry.express@leeds.gov.uk,14:00 - 17:00,Closed,14:00 - 17:00,Closed,14:00 - 17:00,10:00 - 12:00,Closed,1,1,,,1,,,1,1,1,,1,1,,,1,,,,,1,,1,1,1,1,,1,1,,1,1,,,,1,1,,1,1,,1,1,,,1,,1,,1,
Guiseley,Leeds City Council,Otley Road,Guiseley,Leeds,LS20 8AH,LS208AH,53.8733525728464,-1.71106697856799,Guiseley and Rawdon,http://statistics.data.gov.uk/id/statistical-geography/E05001425,0194 387 2675,enquiry.express@leeds.gov.uk,09:00 - 17:00,09:00 - 19:00,Closed,09:00 - 17:00,09:00 - 17:00,10:00 - 13:00,Closed,1,1,,1,,,,1,1,1,,1,1,,,1,,1,1,1,1,,1,1,1,1,1,1,1,,,1,,1,1,1,1,,1,,1,1,1,1,,1,1,,,1,
Halton,Leeds City Council,273 Seby Road,Halton ,Leeds,LS15 7JR,LS157JR,53.7963221079854,-1.47016806836091,Temple Newsam,http://statistics.data.gov.uk/id/statistical-geography/E05001441,0113 378 1865,enquiry.express@leeds.gov.uk,12:00 - 17:00,10:00 - 17:00,12:00 - 17:00,10:00 - 19:00,10:00 - 17:00,10:00 - 15:00,12:00 - 15:00,1,1,,1,1,,1,1,1,1,,1,1,1,,1,,,,,1,,1,1,1,1,1,1,1,,1,1,,1,1,1,1,1,1,1,,1,1,,1,1,,,,1,
Headingley,Leeds City Council,North Lane,Headingley,Leeds,LS6 3HG,LS063HG,53.8208864764332,-1.57910638345650,Headingley,http://statistics.data.gov.uk/id/statistical-geography/E05001427,0113 378 1868,enquiry.express@leeds.gov.uk,09:00 - 17:30,09:00 - 19:00,09:30 - 17:30,09:00 - 19:00,09:00 - 17:30,09:00 - 17:30,11:00 - 15:00,1,1,,1,1,,,1,1,1,,1,1,,,1,,1,,,1,,1,1,,1,1,1,1,,,1,,1,1,1,1,1,1,,,1,1,1,1,1,1,1,,1,
Holt Park,Leeds City Council,Ralph Thoresby High School,Holtdale Approach,Leeds,LS16 7RX,LS167RX,53.8566748339315,-1.60780074593661,Adel and Wharfedale,http://statistics.data.gov.uk/id/statistical-geography/E05001411,0113 336 8188,enquiry.express@leeds.gov.uk,09:00 - 17:00,09:00 - 17:00,09:00 - 19:00,09:00 - 17:00,09:00 - 17:00,10:00 - 16:00,Closed,1,1,,1,1,,,1,1,1,,1,1,,,1,,,,,1,,1,1,1,1,1,1,1,,,1,,1,1,1,1,1,1,,1,1,1,1,,1,1,1,,1,1
Horsforth,Leeds City Council,Town Street,Horsforth,Leeds,LS18 5BL,LS185BL,53.8406147978952,-1.63682559334117,Horsforth,http://statistics.data.gov.uk/id/statistical-geography/E05001428,0113 378 1872,enquiry.express@leeds.gov.uk,08:30 - 19:00,08:30 - 17:00,08:30 - 17:00,08:30 - 17:00,10:00 - 17:00,10:00 - 16:00,11:00 - 14:00,1,1,1,1,1,,1,1,1,1,,1,1,1,,1,,1,,,1,,1,1,1,1,1,1,1,1,,1,,1,1,1,1,1,1,1,1,1,1,1,1,1,1,1,,1,
Hunslet,Leeds City Council,Waterloo Road,Hunslet,Leeds,LS10 2NS,LS102NS,53.7795835871701,-1.52762008744676,City and Hunslet,http://statistics.data.gov.uk/id/statistical-geography/E05001420,0113 378 1875,enquiry.express@leeds.gov.uk,"10:00 - 13:00, 14:00 - 17:00","10:00 - 13:00, 14:00 - 17:00",10:00 - 13:00,"10:00 - 13:00, 14:00 - 17:00",Closed,10:00 - 13:00,Closed,1,1,,,,,1,1,1,1,,1,1,,,1,,,,,1,,1,1,1,1,,,,,,1,,1,,1,1,,1,1,,1,1,,1,1,1,,,1,
Kippax,Leeds City Council,Westfield Lane,Kippax,Leeds,LS25 7LY,LS257LY,53.7682526841106,-1.37330381746228,Kippax and Methley,http://statistics.data.gov.uk/id/statistical-geography/E05001431,0113 378 1878,enquiry.express@leeds.gov.uk,10:00 - 19:00,09:00 - 17:00,09:00 - 17:00,09:00 - 17:00,09:00 - 17:00,10:00 - 13:00,Closed,1,1,,,1,,1,1,1,1,,1,1,,,1,,,,,1,1,1,1,1,1,,1,1,1,,1,,1,1,1,1,1,1,,,1,1,,,1,,,,1,
Middleton,Leeds City Council,Saint Georges Centre,St Georges Road,Leeds,LS10 4UZ,LS104UZ,53.7478551278207,-1.53208526724037,Middleton Park,http://statistics.data.gov.uk/id/statistical-geography/E05001433,0113 378 5347,enquiry.express@leeds.gov.uk,08:30 - 18:00,08:30 - 18:00,08:30 - 18:00,08:30 - 18:00,08:30 - 18:00,10:00 - 14:00,Closed,1,1,1,1,,,,1,1,1,,1,1,,,1,1,,,,1,,1,1,1,1,1,,,,,1,,1,1,1,1,,1,,,1,1,,,1,1,,,1,
Moor Allerton,Leeds City Council,Moor Allerton Centre,Moor Allerton,Leeds,LS17 5NY,LS175NY,53.8461993826893,-1.55012591326778,Alwoodley,http://statistics.data.gov.uk/id/statistical-geography/E05001412,0113 378 1881,enquiry.express@leeds.gov.uk,09:00 - 19:00,09:00 - 19:00,09:00 - 19:00,09:00 - 17:00,09:00 - 17:00,10:00 - 16:00,10:00 - 16:00,1,1,,1,1,,1,1,1,1,1,1,1,1,1,1,,1,,,1,,1,1,,1,1,1,1,,1,1,1,1,1,1,1,1,1,,,1,1,1,1,1,,1,,1,
Morley,Leeds City Council,Commercial Street,Morley,Leeds,LS27 8HZ,LS278HZ,53.7466221630509,-1.60130464340544,Morley South,http://statistics.data.gov.uk/id/statistical-geography/E05001436,0113 378 1887,enquiry.express@leeds.gov.uk,10:00 - 18:00,09:00 - 17:00,09:00 - 18:00,09:00 - 17:00,09:00 - 17:00,09:00 - 17:00,Closed,1,1,,1,1,,1,1,1,1,,1,1,,,1,,1,,1,1,,1,1,1,1,1,1,1,,1,1,,1,1,1,1,1,1,1,1,1,1,1,1,1,1,,,1,
Oakwood,Leeds City Council,1 Oakwood Lane,Oakwood,Leeds,LS8 2PZ,LS082PZ,53.8266870089250,-1.50243352052851,Roundhay,http://statistics.data.gov.uk/id/statistical-geography/E05001440,0113 378 1890,enquiry.express@leeds.gov.uk,10:00 - 19:00,12:00 - 17:00,10:00 - 17:00,10:00 - 17:00,10:00 - 17:00,10:00 - 15:00,Closed,1,1,,1,1,,,1,1,1,,1,1,,,1,,,,,1,,1,1,1,1,1,1,1,,,1,,1,1,1,1,1,1,1,1,1,1,1,,1,1,,,1,
Otley,Leeds City Council,Nelson Street,Otley,Leeds,LS21 1EZ,LS211EZ,53.9052193765582,-1.69133439227368,Otley and Yeadon,http://statistics.data.gov.uk/id/statistical-geography/E05001437,0194 346 6572,enquiry.express@leeds.gov.uk,09:00 - 18:00,09:00 - 17:00,09:00 - 17:00,09:00 - 19:00,09:00 - 17:00,09:00 - 16:00,11:00 - 14:00,1,1,,1,1,,1,1,1,1,1,1,1,1,1,1,,1,,,1,,1,1,1,1,1,1,1,1,,1,1,1,1,1,1,1,1,,,1,1,1,1,1,1,1,1,1,
Pudsey,Leeds City Council,Church Lane,Pudsey,Leeds,LS28 7TY,LS287TY,53.7957807414075,-1.66390105899738,Pudsey,http://statistics.data.gov.uk/id/statistical-geography/E05001438,0113 378 1893,enquiry.express@leeds.gov.uk,08:30 - 17:00,08:30 - 18:00,08:30 - 17:00,08:30 - 18:00,08:30 - 17:00,09:00 - 16:00,Closed,1,1,,1,1,,,1,1,1,,1,1,,,1,,1,1,1,1,1,1,1,1,1,1,1,1,1,1,1,,1,1,1,1,1,1,,,1,1,1,,1,1,,,1,1
Rothwell,Leeds City Council,Marsh Street,Rothwell,Leeds,LS26 0AE,LS260AE,53.7470433351131,-1.47906726070000,Rothwell,http://statistics.data.gov.uk/id/statistical-geography/E05001439,0113 378 5622,enquiry.express@leeds.gov.uk,09:00 - 19:00,09:00 - 17:00,10:00 - 19:00,09:00 - 17:00,09:00 - 17:00,10:00 - 15:00,11:00 - 14:00,1,1,,1,1,,1,1,1,1,,1,1,1,1,1,,1,,,1,1,1,1,1,1,1,1,1,,1,1,1,1,1,1,1,1,1,,,1,1,1,1,1,1,1,,1,
Scholes,Leeds City Council,3 Station Road,Scholes,Leeds,LS15 4BJ,LS154BJ,53.8250144612819,-1.42953295174443,Harewood,http://statistics.data.gov.uk/id/statistical-geography/E05001426,0113 378 3121,enquiry.express@leeds.gov.uk,14:00 - 17:00,Closed,Closed,Closed,14:00 - 17:00,10:00 - 12:00,Closed,1,1,,,1,,1,1,1,1,,1,1,,,1,,,,,1,,1,1,1,1,,,1,,,1,,,,1,1,1,1,,,1,,,,1,,,,1,
Seacroft,Leeds City Council,1 Seacroft Avenue,Seacroft,Leeds,LS14 6JD,LS146JD,53.8222104595641,-1.46069686207252,Killingbeck and Seacroft,http://statistics.data.gov.uk/id/statistical-geography/E05001430,0113 378 1902,enquiry.express@leeds.gov.uk,09:00 - 17:30,09:00 - 17:30,10:00 - 17:30,09:00 - 17:30,09:00 - 17:30,09:00 - 14:30,Closed,1,1,1,1,1,,,1,1,1,,1,1,1,,1,1,,,,1,,1,1,1,1,1,,1,,1,1,1,1,1,1,1,1,1,1,1,1,1,,1,1,1,1,,1,
Wetherby,Leeds City Council,17 Westgate,Wetherby,Leeds,LS22 6LL,LS226LL,53.9290498825182,-1.38746817066953,Wetherby,http://statistics.data.gov.uk/id/statistical-geography/E05001443,0193 758 3144,enquiry.express@leeds.gov.uk,10:00 - 17:00,09:00 - 19:00,09:00 - 17:00,09:00 - 17:00,09:00 - 17:00,10:00 - 16:00,Closed,1,1,,1,1,,,1,1,1,,1,1,,,1,,1,,,1,,1,1,1,1,1,1,1,,,1,1,1,1,1,1,1,1,,,1,1,1,,1,1,1,1,1,
Whinmoor,Leeds City Council,Naburn Approach,Whinmoor,Leeds,LS14 2DF,LS142DF,53.8334479332824,-1.45526478756044,Cross Gates and Whinmoor,http://statistics.data.gov.uk/id/statistical-geography/E05001421,0113 378 3129,enquiry.express@leeds.gov.uk,Closed,13:00 - 16:00,Closed,10:00 - 12:00,13:00 - 16:00,10:00 - 12:00,Closed,1,1,,,1,,,1,1,1,,1,1,,,1,,,,,1,,1,1,,1,,,,,,1,,,,1,1,1,1,,,1,1,,,1,,1,,1,
Yeadon,Leeds City Council,Town Hall Square,Yeadon,Leeds,LS19 7PP,LS197PP,53.8660211450603,-1.68359375677937,Otley and Yeadon,http://statistics.data.gov.uk/id/statistical-geography/E05001437,0113 378 1909,enquiry.express@leeds.gov.uk,10:00 - 17:00,08:30 - 17:00,08:30 - 19:00,08:30 - 17:00,08:30 - 17:00,09:00 - 13:00,Closed,1,1,,1,1,,1,1,1,1,,1,1,,,,,1,,,1,,1,1,1,1,1,1,1,,,1,,1,1,1,1,1,1,,,1,1,1,,,,1,,1,
